{
"type": "FeatureCollection",
"name": "hospitals",
"crs": { "type": "name", "properties": { "name": "urn:ogc:def:crs:EPSG::4269" } },
"features": [
{ "type": "Feature", "properties": { "Name": "St Josephs Hospital Health Center", "Address_1": "301 Prospect Avenue", "City": "Syracuse", "State": "NY", "Latitude": 43.055726, "Longitude": -76.149375, "Zip": 13203.0 }, "geometry": { "type": "Point", "coordinates": [ -76.149375, 43.055726 ] } },
{ "type": "Feature", "properties": { "Name": "St James Mercy Hospital - Mercycare", "Address_1": "1 Bethesda Drive", "City": "North Hornell", "State": "NY", "Latitude": 42.346258, "Longitude": -77.660415, "Zip": 14843.0 }, "geometry": { "type": "Point", "coordinates": [ -77.660414999997172, 42.346258000000141 ] } },
{ "type": "Feature", "properties": { "Name": "Arnot Ogden Medical Center", "Address_1": "600 Roe Avenue", "City": "Elmira", "State": "NY", "Latitude": 42.099279, "Longitude": -76.826766, "Zip": 14905.0 }, "geometry": { "type": "Point", "coordinates": [ -76.826766, 42.099279 ] } },
{ "type": "Feature", "properties": { "Name": "Millard Fillmore Hospital", "Address_1": "3 Gates Circle", "City": "Buffalo", "State": "NY", "Latitude": 42.920331, "Longitude": -78.867515, "Zip": 14209.0 }, "geometry": { "type": "Point", "coordinates": [ -78.867514999919194, 42.920331000003586 ] } },
{ "type": "Feature", "properties": { "Name": "Schuyler Hospital", "Address_1": "220 Steuben Street", "City": "Montour Falls", "State": "NY", "Latitude": 42.351541, "Longitude": -76.858602, "Zip": 14865.0 }, "geometry": { "type": "Point", "coordinates": [ -76.858601999999863, 42.351541 ] } },
{ "type": "Feature", "properties": { "Name": "Richmond University Medical Center", "Address_1": "355 Bard Avenue", "City": "Staten Island", "State": "NY", "Latitude": 40.63545, "Longitude": -74.106618, "Zip": 10310.0 }, "geometry": { "type": "Point", "coordinates": [ -74.106618, 40.63545 ] } },
{ "type": "Feature", "properties": { "Name": "Summit Park Hospital-Rockland County Infirmary", "Address_1": "Sanatorium Road", "City": "Pomona", "State": "NY", "Latitude": 41.16096, "Longitude": -74.03928, "Zip": 10970.0 }, "geometry": { "type": "Point", "coordinates": [ -74.03928, 41.16096 ] } },
{ "type": "Feature", "properties": { "Name": "St Luke's Cornwall Hospital/Newburgh", "Address_1": "70 Dubois Street", "City": "Newburgh", "State": "NY", "Latitude": 41.502947, "Longitude": -74.015121, "Zip": 12550.0 }, "geometry": { "type": "Point", "coordinates": [ -74.015121, 41.502947 ] } },
{ "type": "Feature", "properties": { "Name": "Huntington Hospital", "Address_1": "270 Park Avenue", "City": "Huntington", "State": "NY", "Latitude": 40.880029, "Longitude": -73.417519, "Zip": 11743.0 }, "geometry": { "type": "Point", "coordinates": [ -73.417519, 40.880029 ] } },
{ "type": "Feature", "properties": { "Name": "Northern Dutchess Hospital", "Address_1": "6511 Springbrook Avenue", "City": "Rhinebeck", "State": "NY", "Latitude": 41.934503, "Longitude": -73.911951, "Zip": 12572.0 }, "geometry": { "type": "Point", "coordinates": [ -73.911951, 41.934503 ] } },
{ "type": "Feature", "properties": { "Name": "Olean General Hospital", "Address_1": "515 Main Street", "City": "Olean", "State": "NY", "Latitude": 42.090368, "Longitude": -78.426638, "Zip": 14760.0 }, "geometry": { "type": "Point", "coordinates": [ -78.426637999976137, 42.090368000001227 ] } },
{ "type": "Feature", "properties": { "Name": "Coler-Goldwater Specialty Hospital & Nursing Facility - Coler Hospital Site", "Address_1": "Roosevelt Island", "City": "New York", "State": "NY", "Latitude": 40.75948, "Longitude": -73.95235, "Zip": 10044.0 }, "geometry": { "type": "Point", "coordinates": [ -73.95235, 40.75948 ] } },
{ "type": "Feature", "properties": { "Name": "Mohawk Valley Heart Institute, Inc", "Address_1": "2209 Genesee Street", "City": "Utica", "State": "NY", "Latitude": 43.083489, "Longitude": -75.267322, "Zip": 13501.0 }, "geometry": { "type": "Point", "coordinates": [ -75.267322, 43.083489 ] } },
{ "type": "Feature", "properties": { "Name": "Community Memorial Hospital Inc", "Address_1": "150 Broad St", "City": "Hamilton", "State": "NY", "Latitude": 42.813116, "Longitude": -75.542216, "Zip": 13346.0 }, "geometry": { "type": "Point", "coordinates": [ -75.542216, 42.813116 ] } },
{ "type": "Feature", "properties": { "Name": "St Catherine of Siena Hospital", "Address_1": "50 Route 25A", "City": "Smithtown", "State": "NY", "Latitude": 40.867522, "Longitude": -73.220213, "Zip": 11787.0 }, "geometry": { "type": "Point", "coordinates": [ -73.220213, 40.867522 ] } },
{ "type": "Feature", "properties": { "Name": "Brookdale Hospital Medical Center", "Address_1": "Linden Boulevard at Brookdale Plaza", "City": "Brooklyn", "State": "NY", "Latitude": 40.6618, "Longitude": -73.91454, "Zip": 11212.0 }, "geometry": { "type": "Point", "coordinates": [ -73.91454, 40.6618 ] } },
{ "type": "Feature", "properties": { "Name": "Forest Hills Hospital", "Address_1": "102-01 66th Road", "City": "Forest Hills", "State": "NY", "Latitude": 40.728548, "Longitude": -73.851658, "Zip": 11375.0 }, "geometry": { "type": "Point", "coordinates": [ -73.851658, 40.728548 ] } },
{ "type": "Feature", "properties": { "Name": "Monroe Community Hospital", "Address_1": "435 East Henrietta Road", "City": "Rochester", "State": "NY", "Latitude": 43.112156, "Longitude": -77.616163, "Zip": 14620.0 }, "geometry": { "type": "Point", "coordinates": [ -77.616162999996959, 43.112156000000141 ] } },
{ "type": "Feature", "properties": { "Name": "St. Luke's Cornwall Hospital/Cornwall", "Address_1": "19 Laurel Avenue", "City": "Cornwall", "State": "NY", "Latitude": 41.43568, "Longitude": -74.041607, "Zip": 12518.0 }, "geometry": { "type": "Point", "coordinates": [ -74.041607, 41.43568 ] } },
{ "type": "Feature", "properties": { "Name": "Bon Secours Community Hospital", "Address_1": "160 East Main Street", "City": "Port Jervis", "State": "NY", "Latitude": 41.367761, "Longitude": -74.682512, "Zip": 12771.0 }, "geometry": { "type": "Point", "coordinates": [ -74.682512, 41.367761 ] } },
{ "type": "Feature", "properties": { "Name": "Glens Falls Hospital", "Address_1": "100 Park Street", "City": "Glens Falls", "State": "NY", "Latitude": 43.307292, "Longitude": -73.646082, "Zip": 12801.0 }, "geometry": { "type": "Point", "coordinates": [ -73.646082, 43.307292 ] } },
{ "type": "Feature", "properties": { "Name": "Mount Sinai Hospital", "Address_1": "One Gustave L Levy Place", "City": "New York", "State": "NY", "Latitude": 40.790478, "Longitude": -73.953773, "Zip": 10029.0 }, "geometry": { "type": "Point", "coordinates": [ -73.953773, 40.790478 ] } },
{ "type": "Feature", "properties": { "Name": "The Unity Hospital of Rochester", "Address_1": "1555 Long Pond Road", "City": "Rochester", "State": "NY", "Latitude": 43.191563, "Longitude": -77.701535, "Zip": 14626.0 }, "geometry": { "type": "Point", "coordinates": [ -77.701534999995971, 43.19156300000018 ] } },
{ "type": "Feature", "properties": { "Name": "SJRH - Dobbs Ferry Pavillion", "Address_1": "128 Ashford Avenue", "City": "Dobbs Ferry", "State": "NY", "Latitude": 41.014807, "Longitude": -73.862708, "Zip": 10522.0 }, "geometry": { "type": "Point", "coordinates": [ -73.862708, 41.014807 ] } },
{ "type": "Feature", "properties": { "Name": "Benedictine Hospital", "Address_1": "105 Marys Avenue", "City": "Kingston", "State": "NY", "Latitude": 41.922234, "Longitude": -73.999188, "Zip": 12401.0 }, "geometry": { "type": "Point", "coordinates": [ -73.999188, 41.922234 ] } },
{ "type": "Feature", "properties": { "Name": "NY Eye and Ear Infirmary", "Address_1": "310 East 14th Street", "City": "New York", "State": "NY", "Latitude": 40.732114, "Longitude": -73.984553, "Zip": 10003.0 }, "geometry": { "type": "Point", "coordinates": [ -73.984553, 40.732114 ] } },
{ "type": "Feature", "properties": { "Name": "Clifton Springs Hospital and Clinic", "Address_1": "2 Coulter Road", "City": "Clifton Springs", "State": "NY", "Latitude": 42.960525, "Longitude": -77.139252, "Zip": 14432.0 }, "geometry": { "type": "Point", "coordinates": [ -77.139251999999445, 42.960525 ] } },
{ "type": "Feature", "properties": { "Name": "Brooks Memorial Hospital", "Address_1": "529 Central Avenue", "City": "Dunkirk", "State": "NY", "Latitude": 42.480775, "Longitude": -79.333874, "Zip": 14048.0 }, "geometry": { "type": "Point", "coordinates": [ -79.33387399979685, 42.480775000009423 ] } },
{ "type": "Feature", "properties": { "Name": "Maimonides Medical Center", "Address_1": "4802 Tenth Avenue", "City": "Brooklyn", "State": "NY", "Latitude": 40.639543, "Longitude": -73.99826, "Zip": 11219.0 }, "geometry": { "type": "Point", "coordinates": [ -73.99826, 40.639543 ] } },
{ "type": "Feature", "properties": { "Name": "New York Community Hospital of     Brooklyn, Inc", "Address_1": "2525 Kings Highway", "City": "Brooklyn", "State": "NY", "Latitude": 40.613424, "Longitude": -73.948948, "Zip": 11229.0 }, "geometry": { "type": "Point", "coordinates": [ -73.948948, 40.613424 ] } },
{ "type": "Feature", "properties": { "Name": "Woodhull Medical & Mental Health Center", "Address_1": "760 Broadway", "City": "Brooklyn", "State": "NY", "Latitude": 40.700494, "Longitude": -73.94164, "Zip": 11206.0 }, "geometry": { "type": "Point", "coordinates": [ -73.94164, 40.700494 ] } },
{ "type": "Feature", "properties": { "Name": "Samaritan Hospital", "Address_1": "2215 Burdett Avenue", "City": "Troy", "State": "NY", "Latitude": 42.733532, "Longitude": -73.671463, "Zip": 12180.0 }, "geometry": { "type": "Point", "coordinates": [ -73.671463, 42.733532 ] } },
{ "type": "Feature", "properties": { "Name": "Degraff Memorial Hospital", "Address_1": "445 Tremont Street", "City": "North Tonawanda", "State": "NY", "Latitude": 43.026137, "Longitude": -78.862554, "Zip": 14120.0 }, "geometry": { "type": "Point", "coordinates": [ -78.862553999918646, 43.026137000003558 ] } },
{ "type": "Feature", "properties": { "Name": "SJRH - St Johns Division", "Address_1": "967 North Broadway", "City": "Yonkers", "State": "NY", "Latitude": 40.968345, "Longitude": -73.884978, "Zip": 10701.0 }, "geometry": { "type": "Point", "coordinates": [ -73.884978, 40.968345 ] } },
{ "type": "Feature", "properties": { "Name": "Brooklyn Hospital Center - Downtown Campus", "Address_1": "121 Dekalb Avenue", "City": "Brooklyn", "State": "NY", "Latitude": 40.69194, "Longitude": -73.98017, "Zip": 11201.0 }, "geometry": { "type": "Point", "coordinates": [ -73.98017, 40.69194 ] } },
{ "type": "Feature", "properties": { "Name": "St. Joseph Hospital", "Address_1": "4295 Hempstead Turnpike", "City": "Bethpage", "State": "NY", "Latitude": 40.725849, "Longitude": -73.478663, "Zip": 11714.0 }, "geometry": { "type": "Point", "coordinates": [ -73.478663, 40.725849 ] } },
{ "type": "Feature", "properties": { "Name": "Oswego Hospital - Alvin L Krakau Comm Mtl Health Center Div", "Address_1": "74 Bunner Street", "City": "Oswego", "State": "NY", "Latitude": 43.450327, "Longitude": -76.491007, "Zip": 13126.0 }, "geometry": { "type": "Point", "coordinates": [ -76.491007, 43.450327 ] } },
{ "type": "Feature", "properties": { "Name": "Brookhaven Memorial Hospital Medical Center Inc", "Address_1": "101 Hospital Road", "City": "Patchogue", "State": "NY", "Latitude": 40.776593, "Longitude": -72.977834, "Zip": 11772.0 }, "geometry": { "type": "Point", "coordinates": [ -72.977834, 40.776593 ] } },
{ "type": "Feature", "properties": { "Name": "Helen Hayes Hospital", "Address_1": "51 N Route 9W", "City": "West Haverstraw", "State": "NY", "Latitude": 41.213881, "Longitude": -73.986, "Zip": 10993.0 }, "geometry": { "type": "Point", "coordinates": [ -73.986, 41.213881 ] } },
{ "type": "Feature", "properties": { "Name": "Rockefeller University Hospital", "Address_1": "1230 York Avenue", "City": "New York", "State": "NY", "Latitude": 40.762948, "Longitude": -73.956515, "Zip": 10021.0 }, "geometry": { "type": "Point", "coordinates": [ -73.956515, 40.762948 ] } },
{ "type": "Feature", "properties": { "Name": "Columbia Memorial Hospital", "Address_1": "71 Prospect Ave", "City": "Hudson", "State": "NY", "Latitude": 42.246259, "Longitude": -73.776213, "Zip": 12534.0 }, "geometry": { "type": "Point", "coordinates": [ -73.776213, 42.246259 ] } },
{ "type": "Feature", "properties": { "Name": "Franklin Hospital", "Address_1": "900 Franklin Avenue", "City": "Valley Stream", "State": "NY", "Latitude": 40.68178, "Longitude": -73.685805, "Zip": 11580.0 }, "geometry": { "type": "Point", "coordinates": [ -73.685805, 40.68178 ] } },
{ "type": "Feature", "properties": { "Name": "Memorial Hosp of Wm F & Gertrude F Jones A/K/A Jones Memorial Hosp", "Address_1": "191 North Main Street", "City": "Wellsville", "State": "NY", "Latitude": 42.122796, "Longitude": -77.94977, "Zip": 14895.0 }, "geometry": { "type": "Point", "coordinates": [ -77.949769999993535, 42.122796000000349 ] } },
{ "type": "Feature", "properties": { "Name": "Montefiore Medical Center - Henry & Lucy Moses Div", "Address_1": "111 East 210th Street", "City": "Bronx", "State": "NY", "Latitude": 40.879928, "Longitude": -73.880467, "Zip": 10467.0 }, "geometry": { "type": "Point", "coordinates": [ -73.880467, 40.879928 ] } },
{ "type": "Feature", "properties": { "Name": "Tri Town Regional Healthcare", "Address_1": "43 Pearl Street West", "City": "Sidney", "State": "NY", "Latitude": 42.304702, "Longitude": -75.394917, "Zip": 13838.0 }, "geometry": { "type": "Point", "coordinates": [ -75.394917, 42.304702 ] } },
{ "type": "Feature", "properties": { "Name": "Geneva General Hospital", "Address_1": "196-198 North Street", "City": "Geneva", "State": "NY", "Latitude": 42.87568, "Longitude": -76.987045, "Zip": 14456.0 }, "geometry": { "type": "Point", "coordinates": [ -76.987044999999711, 42.87568 ] } },
{ "type": "Feature", "properties": { "Name": "Good Samaritan Hospital Medical Center", "Address_1": "1000 Montauk Highway", "City": "West Islip", "State": "NY", "Latitude": 40.695786, "Longitude": -73.294734, "Zip": 11795.0 }, "geometry": { "type": "Point", "coordinates": [ -73.294734, 40.695786 ] } },
{ "type": "Feature", "properties": { "Name": "United Health Services Hospitals Inc. - Binghamton General Hospital", "Address_1": "10-42 Mitchell Avenue", "City": "Binghamton", "State": "NY", "Latitude": 42.08544, "Longitude": -75.91541, "Zip": 13903.0 }, "geometry": { "type": "Point", "coordinates": [ -75.91541, 42.08544 ] } },
{ "type": "Feature", "properties": { "Name": "Cobleskill Regional Hospital", "Address_1": "178 Grandview Drive", "City": "Cobleskill", "State": "NY", "Latitude": 42.686264, "Longitude": -74.482932, "Zip": 12043.0 }, "geometry": { "type": "Point", "coordinates": [ -74.482932, 42.686264 ] } },
{ "type": "Feature", "properties": { "Name": "St Francis Hospital", "Address_1": "100 Port Washington Boulevard", "City": "Roslyn", "State": "NY", "Latitude": 40.80138, "Longitude": -73.666, "Zip": 11576.0 }, "geometry": { "type": "Point", "coordinates": [ -73.666, 40.80138 ] } },
{ "type": "Feature", "properties": { "Name": "Long Island Jewish Medical Center", "Address_1": "270-05 76th Ave", "City": "New Hyde Park", "State": "NY", "Latitude": 40.753343, "Longitude": -73.706845, "Zip": 11040.0 }, "geometry": { "type": "Point", "coordinates": [ -73.706845, 40.753343 ] } },
{ "type": "Feature", "properties": { "Name": "Champlain Valley Physicians Hospital Medical Center", "Address_1": "75 Beekman St", "City": "Plattsburgh", "State": "NY", "Latitude": 44.700179, "Longitude": -73.466727, "Zip": 12901.0 }, "geometry": { "type": "Point", "coordinates": [ -73.466727, 44.700179 ] } },
{ "type": "Feature", "properties": { "Name": "Mary Imogene Bassett Hospital", "Address_1": "One Atwell Road", "City": "Cooperstown", "State": "NY", "Latitude": 42.695787, "Longitude": -74.922676, "Zip": 13326.0 }, "geometry": { "type": "Point", "coordinates": [ -74.922676, 42.695787 ] } },
{ "type": "Feature", "properties": { "Name": "New York Methodist Hospital", "Address_1": "506 Sixth Street", "City": "Brooklyn", "State": "NY", "Latitude": 40.668283, "Longitude": -73.979317, "Zip": 11215.0 }, "geometry": { "type": "Point", "coordinates": [ -73.979317, 40.668283 ] } },
{ "type": "Feature", "properties": { "Name": "Bronx-Lebanon Hospital Center - Fulton Division", "Address_1": "1276 Fulton Avenue", "City": "Bronx", "State": "NY", "Latitude": 40.831809, "Longitude": -73.90363, "Zip": 10456.0 }, "geometry": { "type": "Point", "coordinates": [ -73.90363, 40.831809 ] } },
{ "type": "Feature", "properties": { "Name": "Canton-Potsdam Hospital", "Address_1": "50 Leroy St", "City": "Potsdam", "State": "NY", "Latitude": 44.676147, "Longitude": -74.981529, "Zip": 13676.0 }, "geometry": { "type": "Point", "coordinates": [ -74.981529, 44.676147 ] } },
{ "type": "Feature", "properties": { "Name": "St Joseph's MC-St Vincents Westchester Division", "Address_1": "275 North Street", "City": "Harrison", "State": "NY", "Latitude": 40.991323, "Longitude": -73.711753, "Zip": 10528.0 }, "geometry": { "type": "Point", "coordinates": [ -73.711753, 40.991323 ] } },
{ "type": "Feature", "properties": { "Name": "University Hospital of Brooklyn", "Address_1": "445 Lenox Road", "City": "Brooklyn", "State": "NY", "Latitude": 40.654559, "Longitude": -73.944285, "Zip": 11203.0 }, "geometry": { "type": "Point", "coordinates": [ -73.944285, 40.654559 ] } },
{ "type": "Feature", "properties": { "Name": "Highland Hospital", "Address_1": "1000 South Avenue", "City": "Rochester", "State": "NY", "Latitude": 43.135677, "Longitude": -77.607563, "Zip": 14620.0 }, "geometry": { "type": "Point", "coordinates": [ -77.607562999997015, 43.135677000000129 ] } },
{ "type": "Feature", "properties": { "Name": "Montefiore Med Center - Jack D Weiler Hosp of A Einstein College Div", "Address_1": "1825 Eastchester Rd", "City": "Bronx", "State": "NY", "Latitude": 40.850354, "Longitude": -73.844853, "Zip": 10461.0 }, "geometry": { "type": "Point", "coordinates": [ -73.844853, 40.850354 ] } },
{ "type": "Feature", "properties": { "Name": "Seton Health System-St Mary's Campus", "Address_1": "1300 Massachusetts Avenue", "City": "Troy", "State": "NY", "Latitude": 42.743592, "Longitude": -73.675664, "Zip": 12180.0 }, "geometry": { "type": "Point", "coordinates": [ -73.675664, 42.743592 ] } },
{ "type": "Feature", "properties": { "Name": "New York Westchester Square Medical Center", "Address_1": "2475 St Raymond Avenue", "City": "Bronx", "State": "NY", "Latitude": 40.840292, "Longitude": -73.84841, "Zip": 10461.0 }, "geometry": { "type": "Point", "coordinates": [ -73.84841, 40.840292 ] } },
{ "type": "Feature", "properties": { "Name": "Flushing Hospital Medical Center", "Address_1": "45th Avenue & Parsons Blvd", "City": "Flushing", "State": "NY", "Latitude": 40.755678, "Longitude": -73.815508, "Zip": 11355.0 }, "geometry": { "type": "Point", "coordinates": [ -73.815508, 40.755678 ] } },
{ "type": "Feature", "properties": { "Name": "Newark-Wayne Community Hospital", "Address_1": "111 Driving Park Avenue", "City": "Newark", "State": "NY", "Latitude": 43.05727, "Longitude": -77.09767, "Zip": 14513.0 }, "geometry": { "type": "Point", "coordinates": [ -77.097669999999511, 43.05727 ] } },
{ "type": "Feature", "properties": { "Name": "Calvary Hospital Inc", "Address_1": "1740-70 Eastchester Road", "City": "Bronx", "State": "NY", "Latitude": 40.847219, "Longitude": -73.844643, "Zip": 10461.0 }, "geometry": { "type": "Point", "coordinates": [ -73.844643, 40.847219 ] } },
{ "type": "Feature", "properties": { "Name": "Ellenville Regional Hospital", "Address_1": "10 Healthy Way", "City": "Ellenville", "State": "NY", "Latitude": 41.72078, "Longitude": -74.37736, "Zip": 12428.0 }, "geometry": { "type": "Point", "coordinates": [ -74.37736, 41.72078 ] } },
{ "type": "Feature", "properties": { "Name": "Soldiers and Sailors Memorial Hospital of Yates County Inc", "Address_1": "418 North Main Street", "City": "Penn Yan", "State": "NY", "Latitude": 42.670892, "Longitude": -77.059932, "Zip": 14527.0 }, "geometry": { "type": "Point", "coordinates": [ -77.059931999999634, 42.670892 ] } },
{ "type": "Feature", "properties": { "Name": "Nathan Littauer Hospital", "Address_1": "99 East State Street", "City": "Gloversville", "State": "NY", "Latitude": 43.068067, "Longitude": -74.330909, "Zip": 12078.0 }, "geometry": { "type": "Point", "coordinates": [ -74.330909, 43.068067 ] } },
{ "type": "Feature", "properties": { "Name": "Lincoln Medical & Mental Health Center", "Address_1": "234 East 149th Street", "City": "Bronx", "State": "NY", "Latitude": 40.817652, "Longitude": -73.924196, "Zip": 10451.0 }, "geometry": { "type": "Point", "coordinates": [ -73.924196, 40.817652 ] } },
{ "type": "Feature", "properties": { "Name": "The Unity Hospital of Rochester-St Marys Campus", "Address_1": "89 Genesee Street", "City": "Rochester", "State": "NY", "Latitude": 43.148418, "Longitude": -77.636135, "Zip": 14611.0 }, "geometry": { "type": "Point", "coordinates": [ -77.636134999996727, 43.148418000000149 ] } },
{ "type": "Feature", "properties": { "Name": "Mount Sinai Hospital - Mount Sinai Hospital of Queens", "Address_1": "25-10 30th Avenue", "City": "Long Island City", "State": "NY", "Latitude": 40.768398, "Longitude": -73.924747, "Zip": 11102.0 }, "geometry": { "type": "Point", "coordinates": [ -73.924747, 40.768398 ] } },
{ "type": "Feature", "properties": { "Name": "Sheehan Memorial Hospital", "Address_1": "425 Michigan Avenue", "City": "Buffalo", "State": "NY", "Latitude": 42.88397, "Longitude": -78.868247, "Zip": 14203.0 }, "geometry": { "type": "Point", "coordinates": [ -78.868246999919577, 42.883970000003579 ] } },
{ "type": "Feature", "properties": { "Name": "Staten Island University Hosp-North", "Address_1": "475 Seaview Avenue", "City": "Staten Island", "State": "NY", "Latitude": 40.584153, "Longitude": -74.087023, "Zip": 10305.0 }, "geometry": { "type": "Point", "coordinates": [ -74.087023, 40.584153 ] } },
{ "type": "Feature", "properties": { "Name": "Samaritan Medical Center", "Address_1": "830 Washington St", "City": "Watertown", "State": "NY", "Latitude": 43.964857, "Longitude": -75.912841, "Zip": 13601.0 }, "geometry": { "type": "Point", "coordinates": [ -75.912841, 43.964857 ] } },
{ "type": "Feature", "properties": { "Name": "Faxton-St Lukes Healthcare St Lukes Division", "Address_1": "1656 Champlin  Avenue", "City": "Utica", "State": "NY", "Latitude": 43.098648, "Longitude": -75.275604, "Zip": 13502.0 }, "geometry": { "type": "Point", "coordinates": [ -75.275604, 43.098648 ] } },
{ "type": "Feature", "properties": { "Name": "Mercy Medical Center", "Address_1": "1000 North Village Avenue", "City": "Rockville Centre", "State": "NY", "Latitude": 40.685783, "Longitude": -73.63459, "Zip": 11570.0 }, "geometry": { "type": "Point", "coordinates": [ -73.63459, 40.685783 ] } },
{ "type": "Feature", "properties": { "Name": "Interfaith Medical Center", "Address_1": "1545 Atlantic Avenue", "City": "Brooklyn", "State": "NY", "Latitude": 40.677934, "Longitude": -73.937509, "Zip": 11213.0 }, "geometry": { "type": "Point", "coordinates": [ -73.937509, 40.677934 ] } },
{ "type": "Feature", "properties": { "Name": "Alice Hyde Medical Center", "Address_1": "133 Park Street", "City": "Malone", "State": "NY", "Latitude": 44.856874, "Longitude": -74.291931, "Zip": 12953.0 }, "geometry": { "type": "Point", "coordinates": [ -74.291931, 44.856874 ] } },
{ "type": "Feature", "properties": { "Name": "Womans Christian Assoc Hospital - WCA Hosp at Jones Memorial Health Center", "Address_1": "51 Glasgow Avenue", "City": "Jamestown", "State": "NY", "Latitude": 42.091457, "Longitude": -79.2445, "Zip": 14701.0 }, "geometry": { "type": "Point", "coordinates": [ -79.244499999841608, 42.091457000007708 ] } },
{ "type": "Feature", "properties": { "Name": "Women And Children's Hospital Of Buffalo", "Address_1": "219 Bryant Street", "City": "Buffalo", "State": "NY", "Latitude": 42.908945, "Longitude": -78.875236, "Zip": 14222.0 }, "geometry": { "type": "Point", "coordinates": [ -78.875235999917962, 42.908945000003648 ] } },
{ "type": "Feature", "properties": { "Name": "SVCMC-St Vincents Manhattan", "Address_1": "153 West 11 Street", "City": "New York", "State": "NY", "Latitude": 40.736208, "Longitude": -74.000063, "Zip": 10011.0 }, "geometry": { "type": "Point", "coordinates": [ -74.000063, 40.736208 ] } },
{ "type": "Feature", "properties": { "Name": "Coney Island Hospital", "Address_1": "2601 Ocean Parkway", "City": "Brooklyn", "State": "NY", "Latitude": 40.58662, "Longitude": -73.965796, "Zip": 11235.0 }, "geometry": { "type": "Point", "coordinates": [ -73.965796, 40.58662 ] } },
{ "type": "Feature", "properties": { "Name": "Mount St Marys Hospital and Health Center", "Address_1": "5300 Military Road", "City": "Lewiston", "State": "NY", "Latitude": 43.154936, "Longitude": -79.030822, "Zip": 14092.0 }, "geometry": { "type": "Point", "coordinates": [ -79.030821999879933, 43.154936000005172 ] } },
{ "type": "Feature", "properties": { "Name": "New York Hospital Medical Center   of Queens", "Address_1": "56-45 Main Street", "City": "Flushing", "State": "NY", "Latitude": 40.747516, "Longitude": -73.826026, "Zip": 11355.0 }, "geometry": { "type": "Point", "coordinates": [ -73.826026, 40.747516 ] } },
{ "type": "Feature", "properties": { "Name": "Rome Memorial Hospital, Inc", "Address_1": "1500 N James St", "City": "Rome", "State": "NY", "Latitude": 43.228979, "Longitude": -75.444136, "Zip": 13440.0 }, "geometry": { "type": "Point", "coordinates": [ -75.444136, 43.228979 ] } },
{ "type": "Feature", "properties": { "Name": "St Marys Hospital at Amsterdam", "Address_1": "427 Guy Park Avenue", "City": "Amsterdam", "State": "NY", "Latitude": 42.95361, "Longitude": -74.215762, "Zip": 12010.0 }, "geometry": { "type": "Point", "coordinates": [ -74.215762, 42.95361 ] } },
{ "type": "Feature", "properties": { "Name": "Elmhurst Hospital Center", "Address_1": "79-01 Broadway", "City": "Elmhurst", "State": "NY", "Latitude": 40.744345, "Longitude": -73.885783, "Zip": 11373.0 }, "geometry": { "type": "Point", "coordinates": [ -73.885783, 40.744345 ] } },
{ "type": "Feature", "properties": { "Name": "North General Hospital", "Address_1": "1879 Madison Avenue", "City": "New York", "State": "NY", "Latitude": 40.803664, "Longitude": -73.942133, "Zip": 10035.0 }, "geometry": { "type": "Point", "coordinates": [ -73.942133, 40.803664 ] } },
{ "type": "Feature", "properties": { "Name": "St Peters Hospital", "Address_1": "315 South Manning Blvd", "City": "Albany", "State": "NY", "Latitude": 42.65651, "Longitude": -73.804706, "Zip": 12208.0 }, "geometry": { "type": "Point", "coordinates": [ -73.804706, 42.65651 ] } },
{ "type": "Feature", "properties": { "Name": "Carthage Area Hospital Inc", "Address_1": "1001 West Street", "City": "Carthage", "State": "NY", "Latitude": 43.986237, "Longitude": -75.59479, "Zip": 13619.0 }, "geometry": { "type": "Point", "coordinates": [ -75.59479, 43.986237 ] } },
{ "type": "Feature", "properties": { "Name": "St Charles Hospital", "Address_1": "200 Belle Terre Road", "City": "Port Jefferson", "State": "NY", "Latitude": 40.947527, "Longitude": -73.06007, "Zip": 11777.0 }, "geometry": { "type": "Point", "coordinates": [ -73.06007, 40.947527 ] } },
{ "type": "Feature", "properties": { "Name": "Chenango Memorial Hospital Inc", "Address_1": "179 North Broad St", "City": "Norwich", "State": "NY", "Latitude": 42.542146, "Longitude": -75.524807, "Zip": 13815.0 }, "geometry": { "type": "Point", "coordinates": [ -75.524807, 42.542146 ] } },
{ "type": "Feature", "properties": { "Name": "Southampton Hospital", "Address_1": "240 Meeting House Lane", "City": "Southampton", "State": "NY", "Latitude": 40.885891, "Longitude": -72.380206, "Zip": 11968.0 }, "geometry": { "type": "Point", "coordinates": [ -72.380206000001365, 40.885891000000115 ] } },
{ "type": "Feature", "properties": { "Name": "Bronx-Lebanon Hospital Center - Concourse Division", "Address_1": "1650 Grand Concourse", "City": "Bronx", "State": "NY", "Latitude": 40.843387, "Longitude": -73.911616, "Zip": 10457.0 }, "geometry": { "type": "Point", "coordinates": [ -73.911616, 40.843387 ] } },
{ "type": "Feature", "properties": { "Name": "Orange Regional Medical Center-Goshen Campus", "Address_1": "4 Harriman Drive", "City": "Goshen", "State": "NY", "Latitude": 41.390997, "Longitude": -74.323879, "Zip": 10924.0 }, "geometry": { "type": "Point", "coordinates": [ -74.323879, 41.390997 ] } },
{ "type": "Feature", "properties": { "Name": "Orange Regional Medical Center-Middletown Campus", "Address_1": "60 Prospect Avenue", "City": "Middletown", "State": "NY", "Latitude": 41.442702, "Longitude": -74.410012, "Zip": 10940.0 }, "geometry": { "type": "Point", "coordinates": [ -74.410012, 41.442702 ] } },
{ "type": "Feature", "properties": { "Name": "SJRH - Park Care Pavilion", "Address_1": "Two Park Avenue", "City": "Yonkers", "State": "NY", "Latitude": 40.939537, "Longitude": -73.892195, "Zip": 10703.0 }, "geometry": { "type": "Point", "coordinates": [ -73.892195, 40.939537 ] } },
{ "type": "Feature", "properties": { "Name": "Adirondack Medical Center-Saranac Lake Site", "Address_1": "2233 State Rt 86, P.O. Box 471", "City": "Saranac Lake", "State": "NY", "Latitude": 44.343993, "Longitude": -74.144386, "Zip": 12983.0 }, "geometry": { "type": "Point", "coordinates": [ -74.144386, 44.343993 ] } },
{ "type": "Feature", "properties": { "Name": "Staten Island University Hosp-South", "Address_1": "375 Seguine Avenue", "City": "Staten Island", "State": "NY", "Latitude": 40.51676, "Longitude": -74.19681, "Zip": 10309.0 }, "geometry": { "type": "Point", "coordinates": [ -74.19681, 40.51676 ] } },
{ "type": "Feature", "properties": { "Name": "United Memorial Medical Center Bank Street Campus", "Address_1": "16 Bank Street", "City": "Batavia", "State": "NY", "Latitude": 42.998567, "Longitude": -78.181552, "Zip": 14020.0 }, "geometry": { "type": "Point", "coordinates": [ -78.181551999984649, 42.998567000000691 ] } },
{ "type": "Feature", "properties": { "Name": "Rochester General Hospital", "Address_1": "1425 Portland Avenue", "City": "Rochester", "State": "NY", "Latitude": 43.192605, "Longitude": -77.5845, "Zip": 14621.0 }, "geometry": { "type": "Point", "coordinates": [ -77.584499999997192, 43.192605000000121 ] } },
{ "type": "Feature", "properties": { "Name": "Massena Memorial Hospital", "Address_1": "1 Hospital Drive", "City": "Massena", "State": "NY", "Latitude": 44.935619, "Longitude": -74.907271, "Zip": 13662.0 }, "geometry": { "type": "Point", "coordinates": [ -74.907271, 44.935619 ] } },
{ "type": "Feature", "properties": { "Name": "River Hospital, Inc.", "Address_1": "4 Fuller Street", "City": "Alexandria Bay", "State": "NY", "Latitude": 44.337294, "Longitude": -75.919973, "Zip": 13607.0 }, "geometry": { "type": "Point", "coordinates": [ -75.919973, 44.337294 ] } },
{ "type": "Feature", "properties": { "Name": "Long Beach Medical Center", "Address_1": "455 East Bay Drive", "City": "Long Beach", "State": "NY", "Latitude": 40.594414, "Longitude": -73.650741, "Zip": 11561.0 }, "geometry": { "type": "Point", "coordinates": [ -73.650741, 40.594414 ] } },
{ "type": "Feature", "properties": { "Name": "Auburn Memorial Hospital", "Address_1": "17 Lansing Street", "City": "Auburn", "State": "NY", "Latitude": 42.940822, "Longitude": -76.564361, "Zip": 13021.0 }, "geometry": { "type": "Point", "coordinates": [ -76.564361, 42.940822 ] } },
{ "type": "Feature", "properties": { "Name": "Oswego Hospital", "Address_1": "110 W Sixth Street", "City": "Oswego", "State": "NY", "Latitude": 43.45413, "Longitude": -76.516071, "Zip": 13126.0 }, "geometry": { "type": "Point", "coordinates": [ -76.516071, 43.45413 ] } },
{ "type": "Feature", "properties": { "Name": "Blythedale Childrens Hospital", "Address_1": "95 Bradhurst Avenue", "City": "Valhalla", "State": "NY", "Latitude": 41.076347, "Longitude": -73.798765, "Zip": 10595.0 }, "geometry": { "type": "Point", "coordinates": [ -73.798765, 41.076347 ] } },
{ "type": "Feature", "properties": { "Name": "Ellis Hospital - McClellan Division", "Address_1": "600 McClellan Street", "City": "Schenectady", "State": "NY", "Latitude": 42.805127, "Longitude": -73.917589, "Zip": 12304.0 }, "geometry": { "type": "Point", "coordinates": [ -73.917589, 42.805127 ] } },
{ "type": "Feature", "properties": { "Name": "Kenmore Mercy Hospital", "Address_1": "2950 Elmwood Avenue", "City": "Kenmore", "State": "NY", "Latitude": 42.977935, "Longitude": -78.878745, "Zip": 14217.0 }, "geometry": { "type": "Point", "coordinates": [ -78.878744999916336, 42.977935000003697 ] } },
{ "type": "Feature", "properties": { "Name": "Coler-Goldwater Spec Hosp&Nurs Fac - Goldwater Hospital Site", "Address_1": "1 Main Street Roosevelt Island", "City": "New York", "State": "NY", "Latitude": 40.76256, "Longitude": -73.94935, "Zip": 10044.0 }, "geometry": { "type": "Point", "coordinates": [ -73.94935, 40.76256 ] } },
{ "type": "Feature", "properties": { "Name": "Cortland Regional Medical Center Inc", "Address_1": "134 Homer Avenue", "City": "Cortland", "State": "NY", "Latitude": 42.608345, "Longitude": -76.186139, "Zip": 13045.0 }, "geometry": { "type": "Point", "coordinates": [ -76.186139, 42.608345 ] } },
{ "type": "Feature", "properties": { "Name": "O'Connor Hospital", "Address_1": "460 Andes Road", "City": "Delhi", "State": "NY", "Latitude": 42.269243, "Longitude": -74.915547, "Zip": 13753.0 }, "geometry": { "type": "Point", "coordinates": [ -74.915547, 42.269243 ] } },
{ "type": "Feature", "properties": { "Name": "New York Presbyterian Hospital - New York Weill Cornell Center", "Address_1": "525 East 68th Street", "City": "New York", "State": "NY", "Latitude": 40.76424, "Longitude": -73.955302, "Zip": 10021.0 }, "geometry": { "type": "Point", "coordinates": [ -73.955302, 40.76424 ] } },
{ "type": "Feature", "properties": { "Name": "NYU Hospital for Joint Diseases", "Address_1": "301 E 17th Street", "City": "New York", "State": "NY", "Latitude": 40.734279, "Longitude": -73.983453, "Zip": 10003.0 }, "geometry": { "type": "Point", "coordinates": [ -73.983453, 40.734279 ] } },
{ "type": "Feature", "properties": { "Name": "Eastern Niagara Hospital - Newfane Division", "Address_1": "2600 William Street", "City": "Newfane", "State": "NY", "Latitude": 43.287702, "Longitude": -78.707058, "Zip": 14108.0 }, "geometry": { "type": "Point", "coordinates": [ -78.707057999940304, 43.287702000002525 ] } },
{ "type": "Feature", "properties": { "Name": "Queens Hospital Center", "Address_1": "82-68 164th Street", "City": "Jamaica", "State": "NY", "Latitude": 40.717138, "Longitude": -73.803554, "Zip": 11432.0 }, "geometry": { "type": "Point", "coordinates": [ -73.803554, 40.717138 ] } },
{ "type": "Feature", "properties": { "Name": "Moses-Ludington Hospital", "Address_1": "1019 Wicker Street", "City": "Ticonderoga", "State": "NY", "Latitude": 43.849378, "Longitude": -73.435535, "Zip": 12883.0 }, "geometry": { "type": "Point", "coordinates": [ -73.435535, 43.849378 ] } },
{ "type": "Feature", "properties": { "Name": "Winthrop-University Hospital", "Address_1": "259 First Street", "City": "Mineola", "State": "NY", "Latitude": 40.741617, "Longitude": -73.643402, "Zip": 11501.0 }, "geometry": { "type": "Point", "coordinates": [ -73.643402, 40.741617 ] } },
{ "type": "Feature", "properties": { "Name": "John T Mather Memorial Hospital of Port Jefferson New York Inc", "Address_1": "75 North Country Road", "City": "Port Jefferson", "State": "NY", "Latitude": 40.938153, "Longitude": -73.053883, "Zip": 11777.0 }, "geometry": { "type": "Point", "coordinates": [ -73.053883, 40.938153 ] } },
{ "type": "Feature", "properties": { "Name": "Community-General Hospital of Greater Syracuse", "Address_1": "4900 Broad Road", "City": "Syracuse", "State": "NY", "Latitude": 43.008312, "Longitude": -76.170185, "Zip": 13215.0 }, "geometry": { "type": "Point", "coordinates": [ -76.170185, 43.008312 ] } },
{ "type": "Feature", "properties": { "Name": "St Lukes Roosevelt Hospital Center - Roosevelt Hospital Division", "Address_1": "1000 Tenth Avenue", "City": "New York", "State": "NY", "Latitude": 40.770074, "Longitude": -73.9878, "Zip": 10019.0 }, "geometry": { "type": "Point", "coordinates": [ -73.9878, 40.770074 ] } },
{ "type": "Feature", "properties": { "Name": "Lakeside Memorial Hospital", "Address_1": "156 West Avenue", "City": "Brockport", "State": "NY", "Latitude": 43.220114, "Longitude": -77.944305, "Zip": 14420.0 }, "geometry": { "type": "Point", "coordinates": [ -77.94430499999163, 43.220114000000358 ] } },
{ "type": "Feature", "properties": { "Name": "Mercy Hospital", "Address_1": "565 Abbott Road", "City": "Buffalo", "State": "NY", "Latitude": 42.848354, "Longitude": -78.81263, "Zip": 14220.0 }, "geometry": { "type": "Point", "coordinates": [ -78.812629999929484, 42.84835400000317 ] } },
{ "type": "Feature", "properties": { "Name": "Strong Memorial Hospital", "Address_1": "601 Elmwood Avenue", "City": "Rochester", "State": "NY", "Latitude": 43.124351, "Longitude": -77.623288, "Zip": 14642.0 }, "geometry": { "type": "Point", "coordinates": [ -77.62328799999689, 43.124351000000139 ] } },
{ "type": "Feature", "properties": { "Name": "St Josephs Hospital", "Address_1": "555 St. Joseph's Boulevard", "City": "Elmira", "State": "NY", "Latitude": 42.091459, "Longitude": -76.796806, "Zip": 14901.0 }, "geometry": { "type": "Point", "coordinates": [ -76.796806, 42.091459 ] } },
{ "type": "Feature", "properties": { "Name": "Phelps Memorial Hospital Assn", "Address_1": "701 North Broadway", "City": "Sleepy Hollow", "State": "NY", "Latitude": 41.107721, "Longitude": -73.859612, "Zip": 10591.0 }, "geometry": { "type": "Point", "coordinates": [ -73.859612, 41.107721 ] } },
{ "type": "Feature", "properties": { "Name": "St Elizabeth Medical Center", "Address_1": "2209 Genesee St", "City": "Utica", "State": "NY", "Latitude": 43.083489, "Longitude": -75.267322, "Zip": 13501.0 }, "geometry": { "type": "Point", "coordinates": [ -75.267322, 43.083489 ] } },
{ "type": "Feature", "properties": { "Name": "Northern Westchester Hospital", "Address_1": "400 East Main Street", "City": "Mount Kisco", "State": "NY", "Latitude": 41.196775, "Longitude": -73.724505, "Zip": 10549.0 }, "geometry": { "type": "Point", "coordinates": [ -73.724505, 41.196775 ] } },
{ "type": "Feature", "properties": { "Name": "RUMC-Bayley Seton", "Address_1": "75 Vanderbilt Avenue", "City": "Staten Island", "State": "NY", "Latitude": 40.621171, "Longitude": -74.075132, "Zip": 10304.0 }, "geometry": { "type": "Point", "coordinates": [ -74.075132, 40.621171 ] } },
{ "type": "Feature", "properties": { "Name": "Sound Shore Medical Center of Westchester", "Address_1": "16 Guion Place", "City": "New Rochelle", "State": "NY", "Latitude": 40.913007, "Longitude": -73.787083, "Zip": 10802.0 }, "geometry": { "type": "Point", "coordinates": [ -73.787083, 40.913007 ] } },
{ "type": "Feature", "properties": { "Name": "Lawrence Hospital Center", "Address_1": "55 Palmer Avenue", "City": "Bronxville", "State": "NY", "Latitude": 40.941756, "Longitude": -73.836131, "Zip": 10708.0 }, "geometry": { "type": "Point", "coordinates": [ -73.836131, 40.941756 ] } },
{ "type": "Feature", "properties": { "Name": "Sunnyview Hospital and Rehabilitation Center", "Address_1": "1270 Belmont Avenue", "City": "Schenectady", "State": "NY", "Latitude": 42.822181, "Longitude": -73.913901, "Zip": 12308.0 }, "geometry": { "type": "Point", "coordinates": [ -73.913901, 42.822181 ] } },
{ "type": "Feature", "properties": { "Name": "Medina Memorial Hospital", "Address_1": "200 Ohio Street", "City": "Medina", "State": "NY", "Latitude": 43.223629, "Longitude": -78.397142, "Zip": 14103.0 }, "geometry": { "type": "Point", "coordinates": [ -78.397141999971979, 43.223629000001203 ] } },
{ "type": "Feature", "properties": { "Name": "New York Presbyterian Hospital - Westchester Division", "Address_1": "21 Bloomingdale Road", "City": "White Plains", "State": "NY", "Latitude": 41.030275, "Longitude": -73.758145, "Zip": 10605.0 }, "geometry": { "type": "Point", "coordinates": [ -73.758145, 41.030275 ] } },
{ "type": "Feature", "properties": { "Name": "Putnam Hospital Center", "Address_1": "670 Stoneleigh Avenue", "City": "Carmel", "State": "NY", "Latitude": 41.386269, "Longitude": -73.664057, "Zip": 10512.0 }, "geometry": { "type": "Point", "coordinates": [ -73.664057, 41.386269 ] } },
{ "type": "Feature", "properties": { "Name": "Catskill Regional Medical Center - G. Hermann Site", "Address_1": "8081 Rt 97", "City": "Callicoon", "State": "NY", "Latitude": 41.74353, "Longitude": -75.04203, "Zip": 12723.0 }, "geometry": { "type": "Point", "coordinates": [ -75.04203, 41.74353 ] } },
{ "type": "Feature", "properties": { "Name": "Buffalo General Hospital", "Address_1": "100 High Street", "City": "Buffalo", "State": "NY", "Latitude": 42.900393, "Longitude": -78.865705, "Zip": 14203.0 }, "geometry": { "type": "Point", "coordinates": [ -78.865704999919799, 42.900393000003568 ] } },
{ "type": "Feature", "properties": { "Name": "Roswell Park Cancer Institute", "Address_1": "Elm and Carlton Streets", "City": "Buffalo", "State": "NY", "Latitude": 42.8928, "Longitude": -78.86673, "Zip": 14263.0 }, "geometry": { "type": "Point", "coordinates": [ -78.866729999919727, 42.892800000003582 ] } },
{ "type": "Feature", "properties": { "Name": "Catskill Regional Medical Center", "Address_1": "P.O. Box 800 68 Harris-Bushville Rd", "City": "Harris", "State": "NY", "Latitude": 41.7162, "Longitude": -74.72208, "Zip": 12742.0 }, "geometry": { "type": "Point", "coordinates": [ -74.72208, 41.7162 ] } },
{ "type": "Feature", "properties": { "Name": "Winifred Masterson Burke Rehabilitation Hospital", "Address_1": "785 Mamaroneck Avenue", "City": "White Plains", "State": "NY", "Latitude": 41.015279, "Longitude": -73.755778, "Zip": 10605.0 }, "geometry": { "type": "Point", "coordinates": [ -73.755778, 41.015279 ] } },
{ "type": "Feature", "properties": { "Name": "Ellis Hospital", "Address_1": "1101 Nott Street", "City": "Schenectady", "State": "NY", "Latitude": 42.819912, "Longitude": -73.919324, "Zip": 12308.0 }, "geometry": { "type": "Point", "coordinates": [ -73.919324, 42.819912 ] } },
{ "type": "Feature", "properties": { "Name": "Adirondack Medical Center-Lake Placid Site", "Address_1": "Church Street", "City": "Lake Placid", "State": "NY", "Latitude": 44.267792, "Longitude": -73.980672, "Zip": 12946.0 }, "geometry": { "type": "Point", "coordinates": [ -73.980672, 44.267792 ] } },
{ "type": "Feature", "properties": { "Name": "Bellevue Hospital Center", "Address_1": "First Avenue at 27th Street", "City": "New York", "State": "NY", "Latitude": 40.739658, "Longitude": -73.976468, "Zip": 10016.0 }, "geometry": { "type": "Point", "coordinates": [ -73.976468, 40.739658 ] } },
{ "type": "Feature", "properties": { "Name": "St Anthony Community Hospital", "Address_1": "15 Maple Avenue", "City": "Warwick", "State": "NY", "Latitude": 41.261073, "Longitude": -74.357018, "Zip": 10990.0 }, "geometry": { "type": "Point", "coordinates": [ -74.357018, 41.261073 ] } },
{ "type": "Feature", "properties": { "Name": "Corning Hospital", "Address_1": "176 Denison Parkway East", "City": "Corning", "State": "NY", "Latitude": 42.14127, "Longitude": -77.047473, "Zip": 14830.0 }, "geometry": { "type": "Point", "coordinates": [ -77.047472999999712, 42.14127 ] } },
{ "type": "Feature", "properties": { "Name": "Crouse Hospital - Commonwealth Division", "Address_1": "6010 East Malloy Road", "City": "Syracuse", "State": "NY", "Latitude": 43.09894, "Longitude": -76.1029, "Zip": 13211.0 }, "geometry": { "type": "Point", "coordinates": [ -76.1029, 43.09894 ] } },
{ "type": "Feature", "properties": { "Name": "Albany Medical Center Hospital", "Address_1": "43 New Scotland Avenue", "City": "Albany", "State": "NY", "Latitude": 42.653238, "Longitude": -73.773969, "Zip": 12208.0 }, "geometry": { "type": "Point", "coordinates": [ -73.773969, 42.653238 ] } },
{ "type": "Feature", "properties": { "Name": "Saratoga Hospital", "Address_1": "211 Church Street", "City": "Saratoga Springs", "State": "NY", "Latitude": 43.08485, "Longitude": -73.796168, "Zip": 12866.0 }, "geometry": { "type": "Point", "coordinates": [ -73.796168, 43.08485 ] } },
{ "type": "Feature", "properties": { "Name": "St Lukes Roosevelt Hospital - St Lukes Hospital Division", "Address_1": "1111 Amsterdam Avenue", "City": "New York", "State": "NY", "Latitude": 40.805821, "Longitude": -73.961696, "Zip": 10025.0 }, "geometry": { "type": "Point", "coordinates": [ -73.961696, 40.805821 ] } },
{ "type": "Feature", "properties": { "Name": "Peninsula Hospital Center", "Address_1": "51-15 Beach Channel Drive", "City": "Far Rockaway", "State": "NY", "Latitude": 40.595194, "Longitude": -73.782028, "Zip": 11691.0 }, "geometry": { "type": "Point", "coordinates": [ -73.782028, 40.595194 ] } },
{ "type": "Feature", "properties": { "Name": "Faxton-St Lukes Healthcare Faxton Division", "Address_1": "1676 Sunset Avenue", "City": "Utica", "State": "NY", "Latitude": 43.090889, "Longitude": -75.257414, "Zip": 13502.0 }, "geometry": { "type": "Point", "coordinates": [ -75.257414, 43.090889 ] } },
{ "type": "Feature", "properties": { "Name": "Delaware Valley Hospital Inc", "Address_1": "1 Titus Place", "City": "Walton", "State": "NY", "Latitude": 42.165611, "Longitude": -75.128109, "Zip": 13856.0 }, "geometry": { "type": "Point", "coordinates": [ -75.128109, 42.165611 ] } },
{ "type": "Feature", "properties": { "Name": "Beth Israel Medical Center/Petrie Campus", "Address_1": "First Ave at 16th Street", "City": "New York", "State": "NY", "Latitude": 40.73717, "Longitude": -73.99232, "Zip": 10003.0 }, "geometry": { "type": "Point", "coordinates": [ -73.99232, 40.73717 ] } },
{ "type": "Feature", "properties": { "Name": "St Joseph's Medical Center", "Address_1": "127 South Broadway", "City": "Yonkers", "State": "NY", "Latitude": 40.928952, "Longitude": -73.896536, "Zip": 10701.0 }, "geometry": { "type": "Point", "coordinates": [ -73.896536, 40.928952 ] } },
{ "type": "Feature", "properties": { "Name": "TLC Health Network Tri-County Memorial Hospital", "Address_1": "100 Memorial Drive", "City": "Gowanda", "State": "NY", "Latitude": 42.46386, "Longitude": -78.942952, "Zip": 14070.0 }, "geometry": { "type": "Point", "coordinates": [ -78.942951999911728, 42.463860000004154 ] } },
{ "type": "Feature", "properties": { "Name": "Niagara Falls Memorial Medical Center", "Address_1": "621 Tenth Street", "City": "Niagara Falls", "State": "NY", "Latitude": 43.093836, "Longitude": -79.05038, "Zip": 14302.0 }, "geometry": { "type": "Point", "coordinates": [ -79.050379999876, 43.093836000005382 ] } },
{ "type": "Feature", "properties": { "Name": "Peconic Bay Medical Center", "Address_1": "1300 Roanoke Avenue", "City": "Riverhead", "State": "NY", "Latitude": 40.933663, "Longitude": -72.6743, "Zip": 11901.0 }, "geometry": { "type": "Point", "coordinates": [ -72.674300000000443, 40.933663 ] } },
{ "type": "Feature", "properties": { "Name": "White Plains Hospital Center", "Address_1": "41 East Post Road", "City": "White Plains", "State": "NY", "Latitude": 41.026387, "Longitude": -73.769492, "Zip": 10601.0 }, "geometry": { "type": "Point", "coordinates": [ -73.769492, 41.026387 ] } },
{ "type": "Feature", "properties": { "Name": "Vassar Brothers Medical Center", "Address_1": "45 Reade Place", "City": "Poughkeepsie", "State": "NY", "Latitude": 41.694473, "Longitude": -73.93526, "Zip": 12601.0 }, "geometry": { "type": "Point", "coordinates": [ -73.93526, 41.694473 ] } },
{ "type": "Feature", "properties": { "Name": "Staten Island Univ Hosp-Concord Div", "Address_1": "1050 Targee Street", "City": "Staten Island", "State": "NY", "Latitude": 40.604087, "Longitude": -74.091219, "Zip": 10304.0 }, "geometry": { "type": "Point", "coordinates": [ -74.091219, 40.604087 ] } },
{ "type": "Feature", "properties": { "Name": "Jacobi Medical Center", "Address_1": "Pelham Parkway & Eastchester Rd", "City": "Bronx", "State": "NY", "Latitude": 40.857365, "Longitude": -73.846577, "Zip": 10461.0 }, "geometry": { "type": "Point", "coordinates": [ -73.846577, 40.857365 ] } },
{ "type": "Feature", "properties": { "Name": "Southside Hospital", "Address_1": "301 East Main St", "City": "Bay Shore", "State": "NY", "Latitude": 40.725138, "Longitude": -73.239703, "Zip": 11706.0 }, "geometry": { "type": "Point", "coordinates": [ -73.239703, 40.725138 ] } },
{ "type": "Feature", "properties": { "Name": "Kingston Hospital", "Address_1": "396 Broadway", "City": "Kingston", "State": "NY", "Latitude": 41.926429, "Longitude": -73.995462, "Zip": 12401.0 }, "geometry": { "type": "Point", "coordinates": [ -73.995462, 41.926429 ] } },
{ "type": "Feature", "properties": { "Name": "Harlem Hospital Center", "Address_1": "506 Lenox Avenue", "City": "New York", "State": "NY", "Latitude": 40.814482, "Longitude": -73.940409, "Zip": 10037.0 }, "geometry": { "type": "Point", "coordinates": [ -73.940409, 40.814482 ] } },
{ "type": "Feature", "properties": { "Name": "Montefiore Medical Center - North Division", "Address_1": "600 East 233rd Street", "City": "Bronx", "State": "NY", "Latitude": 40.894522, "Longitude": -73.861277, "Zip": 10466.0 }, "geometry": { "type": "Point", "coordinates": [ -73.861277, 40.894522 ] } },
{ "type": "Feature", "properties": { "Name": "Good Samaritan Hospital of Suffern", "Address_1": "255 Lafayette Avenue", "City": "Suffern", "State": "NY", "Latitude": 41.112273, "Longitude": -74.135397, "Zip": 10901.0 }, "geometry": { "type": "Point", "coordinates": [ -74.135397, 41.112273 ] } },
{ "type": "Feature", "properties": { "Name": "Wyoming County Community Hospital", "Address_1": "400 North Main Street", "City": "Warsaw", "State": "NY", "Latitude": 42.753509, "Longitude": -78.132455, "Zip": 14569.0 }, "geometry": { "type": "Point", "coordinates": [ -78.13245499998726, 42.753509000000598 ] } },
{ "type": "Feature", "properties": { "Name": "Eastern Niagara Hospital - Lockport Division", "Address_1": "521 East Avenue", "City": "Lockport", "State": "NY", "Latitude": 43.176453, "Longitude": -78.671015, "Zip": 14094.0 }, "geometry": { "type": "Point", "coordinates": [ -78.671014999946109, 43.176453000002326 ] } },
{ "type": "Feature", "properties": { "Name": "Erie County Medical Center", "Address_1": "462 Grider Street", "City": "Buffalo", "State": "NY", "Latitude": 42.927299, "Longitude": -78.829225, "Zip": 14215.0 }, "geometry": { "type": "Point", "coordinates": [ -78.829224999925771, 42.927299000003302 ] } },
{ "type": "Feature", "properties": { "Name": "Long Island College Hospital", "Address_1": "339 Hicks Street", "City": "Brooklyn", "State": "NY", "Latitude": 40.691073, "Longitude": -73.997763, "Zip": 11201.0 }, "geometry": { "type": "Point", "coordinates": [ -73.997763, 40.691073 ] } },
{ "type": "Feature", "properties": { "Name": "New York Downtown Hospital", "Address_1": "170 William Street", "City": "New York", "State": "NY", "Latitude": 40.710406, "Longitude": -74.005482, "Zip": 10038.0 }, "geometry": { "type": "Point", "coordinates": [ -74.005482, 40.710406 ] } },
{ "type": "Feature", "properties": { "Name": "Kings County Hospital Center", "Address_1": "451 Clarkson Avenue", "City": "Brooklyn", "State": "NY", "Latitude": 40.655785, "Longitude": -73.944659, "Zip": 11203.0 }, "geometry": { "type": "Point", "coordinates": [ -73.944659, 40.655785 ] } },
{ "type": "Feature", "properties": { "Name": "Sisters of Charity Hospital - St Joseph Campus", "Address_1": "2605 Harlem Road", "City": "Cheektowaga", "State": "NY", "Latitude": 42.914687, "Longitude": -78.784173, "Zip": 14225.0 }, "geometry": { "type": "Point", "coordinates": [ -78.784172999933133, 42.914687000002971 ] } },
{ "type": "Feature", "properties": { "Name": "St Marys Hospital at Amsterdam - Amsterdam Memorial Campus", "Address_1": "4988 Sthwy 30", "City": "Amsterdam", "State": "NY", "Latitude": 42.961245, "Longitude": -74.186224, "Zip": 12010.0 }, "geometry": { "type": "Point", "coordinates": [ -74.186224, 42.961245 ] } },
{ "type": "Feature", "properties": { "Name": "Wyckoff Heights Medical Center", "Address_1": "374 Stockholm Street", "City": "Brooklyn", "State": "NY", "Latitude": 40.704655, "Longitude": -73.917598, "Zip": 11237.0 }, "geometry": { "type": "Point", "coordinates": [ -73.917598, 40.704655 ] } },
{ "type": "Feature", "properties": { "Name": "Claxton-Hepburn Medical Center", "Address_1": "214 King Street", "City": "Ogdensburg", "State": "NY", "Latitude": 44.69198, "Longitude": -75.500106, "Zip": 13669.0 }, "geometry": { "type": "Point", "coordinates": [ -75.500106, 44.69198 ] } },
{ "type": "Feature", "properties": { "Name": "United Health Services Hospitals Inc. - Wilson Medical Center", "Address_1": "33-57 Harrison Street", "City": "Johnson City", "State": "NY", "Latitude": 42.11483, "Longitude": -75.95707, "Zip": 13790.0 }, "geometry": { "type": "Point", "coordinates": [ -75.95707, 42.11483 ] } },
{ "type": "Feature", "properties": { "Name": "Cayuga Medical Center at Ithaca", "Address_1": "101 Dates Drive", "City": "Ithaca", "State": "NY", "Latitude": 42.469864, "Longitude": -76.536913, "Zip": 14850.0 }, "geometry": { "type": "Point", "coordinates": [ -76.536913, 42.469864 ] } },
{ "type": "Feature", "properties": { "Name": "Clifton-Fine Hospital", "Address_1": "1014 Oswegatchie Trail PO Box 10", "City": "Star Lake", "State": "NY", "Latitude": 44.162569, "Longitude": -75.055621, "Zip": 13690.0 }, "geometry": { "type": "Point", "coordinates": [ -75.055621, 44.162569 ] } },
{ "type": "Feature", "properties": { "Name": "Mount Vernon Hospital", "Address_1": "12 North 7th Avenue", "City": "Mount Vernon", "State": "NY", "Latitude": 40.912461, "Longitude": -73.840002, "Zip": 10550.0 }, "geometry": { "type": "Point", "coordinates": [ -73.840002, 40.912461 ] } },
{ "type": "Feature", "properties": { "Name": "North Central Bronx Hospital", "Address_1": "3424 Kossuth Avenue & 210th Street", "City": "Bronx", "State": "NY", "Latitude": 40.880459, "Longitude": -73.88155, "Zip": 10467.0 }, "geometry": { "type": "Point", "coordinates": [ -73.88155, 40.880459 ] } },
{ "type": "Feature", "properties": { "Name": "Ira Davenport Memorial Hospital Inc", "Address_1": "7571 State Route 54", "City": "Bath", "State": "NY", "Latitude": 42.372731, "Longitude": -77.279068, "Zip": 14810.0 }, "geometry": { "type": "Point", "coordinates": [ -77.279067999999228, 42.372731 ] } },
{ "type": "Feature", "properties": { "Name": "Lewis County General Hospital", "Address_1": "7785 North State Street", "City": "Lowville", "State": "NY", "Latitude": 43.795673, "Longitude": -75.498152, "Zip": 13367.0 }, "geometry": { "type": "Point", "coordinates": [ -75.498152, 43.795673 ] } },
{ "type": "Feature", "properties": { "Name": "Hospital for Special Surgery", "Address_1": "535 E 70th Street", "City": "New York", "State": "NY", "Latitude": 40.76536, "Longitude": -73.95408, "Zip": 10021.0 }, "geometry": { "type": "Point", "coordinates": [ -73.95408, 40.76536 ] } },
{ "type": "Feature", "properties": { "Name": "South Nassau Communities Hospital", "Address_1": "One Healthy Way", "City": "Oceanside", "State": "NY", "Latitude": 40.653739, "Longitude": -73.630335, "Zip": 11572.0 }, "geometry": { "type": "Point", "coordinates": [ -73.630335, 40.653739 ] } },
{ "type": "Feature", "properties": { "Name": "St Barnabas Hospital", "Address_1": "4422 Third Avenue", "City": "Bronx", "State": "NY", "Latitude": 40.854027, "Longitude": -73.890897, "Zip": 10457.0 }, "geometry": { "type": "Point", "coordinates": [ -73.890897, 40.854027 ] } },
{ "type": "Feature", "properties": { "Name": "F F Thompson Hospital", "Address_1": "350 Parrish Street", "City": "Canandaigua", "State": "NY", "Latitude": 42.874696, "Longitude": -77.290658, "Zip": 14424.0 }, "geometry": { "type": "Point", "coordinates": [ -77.290657999999056, 42.874696 ] } },
{ "type": "Feature", "properties": { "Name": "Crouse Hospital", "Address_1": "736 Irving Avenue", "City": "Syracuse", "State": "NY", "Latitude": 43.041112, "Longitude": -76.137932, "Zip": 13210.0 }, "geometry": { "type": "Point", "coordinates": [ -76.137932, 43.041112 ] } },
{ "type": "Feature", "properties": { "Name": "Bertrand Chaffee Hospital", "Address_1": "224 East Main St", "City": "Springville", "State": "NY", "Latitude": 42.508552, "Longitude": -78.659223, "Zip": 14141.0 }, "geometry": { "type": "Point", "coordinates": [ -78.659222999953656, 42.50855200000219 ] } },
{ "type": "Feature", "properties": { "Name": "United Memorial Medical Center North Street Campus", "Address_1": "127 North St", "City": "Batavia", "State": "NY", "Latitude": 43.004031, "Longitude": -78.177487, "Zip": 14020.0 }, "geometry": { "type": "Point", "coordinates": [ -78.177486999984808, 43.00403100000068 ] } },
{ "type": "Feature", "properties": { "Name": "Lutheran Medical Center", "Address_1": "150 55th Street", "City": "Brooklyn", "State": "NY", "Latitude": 40.646587, "Longitude": -74.020437, "Zip": 11220.0 }, "geometry": { "type": "Point", "coordinates": [ -74.020437, 40.646587 ] } },
{ "type": "Feature", "properties": { "Name": "Margaretville Hospital", "Address_1": "42084 State Highway 28", "City": "Margaretville", "State": "NY", "Latitude": 42.147595, "Longitude": -74.642641, "Zip": 12455.0 }, "geometry": { "type": "Point", "coordinates": [ -74.642641, 42.147595 ] } },
{ "type": "Feature", "properties": { "Name": "New York Presbyterian Hospital - Allen Pavilion", "Address_1": "5141 Broadway", "City": "New York", "State": "NY", "Latitude": 40.872473, "Longitude": -73.912762, "Zip": 10034.0 }, "geometry": { "type": "Point", "coordinates": [ -73.912762, 40.872473 ] } },
{ "type": "Feature", "properties": { "Name": "TLC Health Network Lake Shore Hospital", "Address_1": "845 Routes 5&20", "City": "Irving", "State": "NY", "Latitude": 42.559178, "Longitude": -79.127627, "Zip": 14081.0 }, "geometry": { "type": "Point", "coordinates": [ -79.127626999865953, 42.559178000006199 ] } },
{ "type": "Feature", "properties": { "Name": "St Johns Episcopal Hospital So Shore", "Address_1": "327 Beach 19th Street", "City": "Far Rockaway", "State": "NY", "Latitude": 40.598194, "Longitude": -73.752941, "Zip": 11691.0 }, "geometry": { "type": "Point", "coordinates": [ -73.752941, 40.598194 ] } },
{ "type": "Feature", "properties": { "Name": "Mercy Hospital - Mercy Hospital Orchard Park Division", "Address_1": "3669 Southwestern Blvd", "City": "Orchard Park", "State": "NY", "Latitude": 42.781736, "Longitude": -78.772234, "Zip": 14127.0 }, "geometry": { "type": "Point", "coordinates": [ -78.772233999936461, 42.78173600000288 ] } },
{ "type": "Feature", "properties": { "Name": "Albert Lindley Lee Memorial Hospital", "Address_1": "510 South Fourth Street", "City": "Fulton", "State": "NY", "Latitude": 43.315116, "Longitude": -76.406098, "Zip": 13069.0 }, "geometry": { "type": "Point", "coordinates": [ -76.406098, 43.315116 ] } },
{ "type": "Feature", "properties": { "Name": "Syosset Hospital", "Address_1": "221 Jericho Turnpike", "City": "Syosset", "State": "NY", "Latitude": 40.810227, "Longitude": -73.508656, "Zip": 11791.0 }, "geometry": { "type": "Point", "coordinates": [ -73.508656, 40.810227 ] } },
{ "type": "Feature", "properties": { "Name": "North Shore University Hospital", "Address_1": "300 Community Drive", "City": "Manhasset", "State": "NY", "Latitude": 40.784467, "Longitude": -73.704768, "Zip": 11030.0 }, "geometry": { "type": "Point", "coordinates": [ -73.704768, 40.784467 ] } },
{ "type": "Feature", "properties": { "Name": "Glen Cove Hospital", "Address_1": "101 St Andrews Lane", "City": "Glen Cove", "State": "NY", "Latitude": 40.871737, "Longitude": -73.621514, "Zip": 11542.0 }, "geometry": { "type": "Point", "coordinates": [ -73.621514, 40.871737 ] } },
{ "type": "Feature", "properties": { "Name": "Elizabethtown Community Hospital", "Address_1": "75 Park Street", "City": "Elizabethtown", "State": "NY", "Latitude": 44.21543, "Longitude": -73.596532, "Zip": 12932.0 }, "geometry": { "type": "Point", "coordinates": [ -73.596532, 44.21543 ] } },
{ "type": "Feature", "properties": { "Name": "Beth Israel Med Center-Kings Hwy Div", "Address_1": "3201 Kings Highway", "City": "Brooklyn", "State": "NY", "Latitude": 40.617953, "Longitude": -73.943217, "Zip": 11234.0 }, "geometry": { "type": "Point", "coordinates": [ -73.943217, 40.617953 ] } },
{ "type": "Feature", "properties": { "Name": "Ellis Hospital - Bellevue Woman's Care Center Division", "Address_1": "2210 Troy Road", "City": "Niskayuna", "State": "NY", "Latitude": 42.79357, "Longitude": -73.879105, "Zip": 12309.0 }, "geometry": { "type": "Point", "coordinates": [ -73.879105, 42.79357 ] } },
{ "type": "Feature", "properties": { "Name": "Plainview Hospital", "Address_1": "888 Old Country Road", "City": "Plainview", "State": "NY", "Latitude": 40.77423, "Longitude": -73.47914, "Zip": 11803.0 }, "geometry": { "type": "Point", "coordinates": [ -73.47914, 40.77423 ] } },
{ "type": "Feature", "properties": { "Name": "Metropolitan Hospital Center", "Address_1": "1901 First Avenue", "City": "New York", "State": "NY", "Latitude": 40.784571, "Longitude": -73.94382, "Zip": 10029.0 }, "geometry": { "type": "Point", "coordinates": [ -73.94382, 40.784571 ] } },
{ "type": "Feature", "properties": { "Name": "Nassau University Medical Center", "Address_1": "2201 Hempstead Turnpike", "City": "East Meadow", "State": "NY", "Latitude": 40.725346, "Longitude": -73.554321, "Zip": 11554.0 }, "geometry": { "type": "Point", "coordinates": [ -73.554321, 40.725346 ] } },
{ "type": "Feature", "properties": { "Name": "Westchester Medical Center", "Address_1": "100 Woods Road", "City": "Valhalla", "State": "NY", "Latitude": 41.08945, "Longitude": -73.78256, "Zip": 10595.0 }, "geometry": { "type": "Point", "coordinates": [ -73.78256, 41.08945 ] } },
{ "type": "Feature", "properties": { "Name": "Woman's Christian Association", "Address_1": "207 Foote Avenue", "City": "Jamestown", "State": "NY", "Latitude": 42.091579, "Longitude": -79.232941, "Zip": 14701.0 }, "geometry": { "type": "Point", "coordinates": [ -79.232940999845383, 42.091579000007535 ] } },
{ "type": "Feature", "properties": { "Name": "Sisters of Charity Hospital", "Address_1": "2157 Main Street", "City": "Buffalo", "State": "NY", "Latitude": 42.929411, "Longitude": -78.849557, "Zip": 14214.0 }, "geometry": { "type": "Point", "coordinates": [ -78.849556999922271, 42.929411000003455 ] } },
{ "type": "Feature", "properties": { "Name": "NYU Hospitals Center", "Address_1": "550 First Avenue", "City": "New York", "State": "NY", "Latitude": 40.742952, "Longitude": -73.974094, "Zip": 10016.0 }, "geometry": { "type": "Point", "coordinates": [ -73.974094, 40.742952 ] } },
{ "type": "Feature", "properties": { "Name": "Memorial Hospital for Cancer and Allied Diseases", "Address_1": "1275 York Avenue", "City": "New York", "State": "NY", "Latitude": 40.764639, "Longitude": -73.955432, "Zip": 10021.0 }, "geometry": { "type": "Point", "coordinates": [ -73.955432, 40.764639 ] } },
{ "type": "Feature", "properties": { "Name": "Albany Medical Center - South Clinical Campus", "Address_1": "25 Hackett Blvd", "City": "Albany", "State": "NY", "Latitude": 42.645416, "Longitude": -73.77844, "Zip": 12208.0 }, "geometry": { "type": "Point", "coordinates": [ -73.77844, 42.645416 ] } },
{ "type": "Feature", "properties": { "Name": "Aurelia Osborn Fox Memorial Hospital", "Address_1": "One Norton Avenue", "City": "Oneonta", "State": "NY", "Latitude": 42.457398, "Longitude": -75.053251, "Zip": 13820.0 }, "geometry": { "type": "Point", "coordinates": [ -75.053251, 42.457398 ] } },
{ "type": "Feature", "properties": { "Name": "Lenox Hill Hospital", "Address_1": "100 East 77th Street", "City": "New York", "State": "NY", "Latitude": 40.774195, "Longitude": -73.961302, "Zip": 10021.0 }, "geometry": { "type": "Point", "coordinates": [ -73.961302, 40.774195 ] } },
{ "type": "Feature", "properties": { "Name": "Albany Memorial Hospital", "Address_1": "600 Northern Blvd", "City": "Albany", "State": "NY", "Latitude": 42.673537, "Longitude": -73.75017, "Zip": 12204.0 }, "geometry": { "type": "Point", "coordinates": [ -73.75017, 42.673537 ] } },
{ "type": "Feature", "properties": { "Name": "Nicholas H Noyes Memorial Hospital", "Address_1": "111 Clara Barton Street", "City": "Dansville", "State": "NY", "Latitude": 42.551837, "Longitude": -77.700143, "Zip": 14437.0 }, "geometry": { "type": "Point", "coordinates": [ -77.700142999996586, 42.55183700000017 ] } },
{ "type": "Feature", "properties": { "Name": "St James Mercy Hospital", "Address_1": "411 Canisteo Street", "City": "Hornell", "State": "NY", "Latitude": 42.314484, "Longitude": -77.660183, "Zip": 14843.0 }, "geometry": { "type": "Point", "coordinates": [ -77.660182999997204, 42.314484000000142 ] } },
{ "type": "Feature", "properties": { "Name": "Kingsbrook Jewish Medical Center", "Address_1": "585 Schenectady Avenue", "City": "Brooklyn", "State": "NY", "Latitude": 40.659767, "Longitude": -73.934071, "Zip": 11203.0 }, "geometry": { "type": "Point", "coordinates": [ -73.934071, 40.659767 ] } },
{ "type": "Feature", "properties": { "Name": "Our Lady of Lourdes Memorial Hospital Inc", "Address_1": "169 Riverside Drive", "City": "Binghamton", "State": "NY", "Latitude": 42.092705, "Longitude": -75.93561, "Zip": 13905.0 }, "geometry": { "type": "Point", "coordinates": [ -75.93561, 42.092705 ] } },
{ "type": "Feature", "properties": { "Name": "Millard Fillmore Suburban Hospital", "Address_1": "1540 Maple Road", "City": "Amherst", "State": "NY", "Latitude": 42.991215, "Longitude": -78.729814, "Zip": 14221.0 }, "geometry": { "type": "Point", "coordinates": [ -78.729813999940205, 42.991215000002633 ] } },
{ "type": "Feature", "properties": { "Name": "University Hospital SUNY Health Science Center", "Address_1": "750 East Adams Street", "City": "Syracuse", "State": "NY", "Latitude": 43.042625, "Longitude": -76.140465, "Zip": 13210.0 }, "geometry": { "type": "Point", "coordinates": [ -76.140465, 43.042625 ] } },
{ "type": "Feature", "properties": { "Name": "Little Falls Hospital", "Address_1": "140 Burwell Street", "City": "Little Falls", "State": "NY", "Latitude": 43.04396, "Longitude": -74.847492, "Zip": 13365.0 }, "geometry": { "type": "Point", "coordinates": [ -74.847492, 43.04396 ] } },
{ "type": "Feature", "properties": { "Name": "New York Presbyterian Hospital - Columbia Presbyterian Center", "Address_1": "622 West 168th Street", "City": "New York", "State": "NY", "Latitude": 40.841277, "Longitude": -73.940383, "Zip": 10032.0 }, "geometry": { "type": "Point", "coordinates": [ -73.940383, 40.841277 ] } },
{ "type": "Feature", "properties": { "Name": "Cuba Memorial Hospital Inc", "Address_1": "140 West Main Street", "City": "Cuba", "State": "NY", "Latitude": 42.213481, "Longitude": -78.287463, "Zip": 14727.0 }, "geometry": { "type": "Point", "coordinates": [ -78.287462999982949, 42.213481000000868 ] } },
{ "type": "Feature", "properties": { "Name": "Eastern Long Island Hospital", "Address_1": "201 Manor Place", "City": "Greenport", "State": "NY", "Latitude": 41.110957, "Longitude": -72.361272, "Zip": 11944.0 }, "geometry": { "type": "Point", "coordinates": [ -72.361272000001648, 41.110957000000127 ] } },
{ "type": "Feature", "properties": { "Name": "Edward John Noble Hospital of Gouverneur", "Address_1": "77 West Barney Street", "City": "Gouverneur", "State": "NY", "Latitude": 44.338198, "Longitude": -75.474402, "Zip": 13642.0 }, "geometry": { "type": "Point", "coordinates": [ -75.474402, 44.338198 ] } },
{ "type": "Feature", "properties": { "Name": "Oneida Healthcare Center", "Address_1": "321 Genesee Street", "City": "Oneida", "State": "NY", "Latitude": 43.078644, "Longitude": -75.65409, "Zip": 13421.0 }, "geometry": { "type": "Point", "coordinates": [ -75.65409, 43.078644 ] } },
{ "type": "Feature", "properties": { "Name": "University Hospital", "Address_1": "Health Sciences Center Suny", "City": "Stony Brook", "State": "NY", "Latitude": 40.90433, "Longitude": -73.115443, "Zip": 11794.0 }, "geometry": { "type": "Point", "coordinates": [ -73.115443, 40.90433 ] } },
{ "type": "Feature", "properties": { "Name": "Westfield Memorial Hospital Inc", "Address_1": "189 E Main Street", "City": "Westfield", "State": "NY", "Latitude": 42.328178, "Longitude": -79.56909, "Zip": 14787.0 }, "geometry": { "type": "Point", "coordinates": [ -79.569089999683598, 42.328178000014844 ] } },
{ "type": "Feature", "properties": { "Name": "The Heart Institute", "Address_1": "475 Seaview Ave", "City": "Staten Island", "State": "NY", "Latitude": 40.584153, "Longitude": -74.087023, "Zip": 10305.0 }, "geometry": { "type": "Point", "coordinates": [ -74.087023, 40.584153 ] } },
{ "type": "Feature", "properties": { "Name": "St Francis Hospital", "Address_1": "241 North Road", "City": "Poughkeepsie", "State": "NY", "Latitude": 41.717388, "Longitude": -73.92942, "Zip": 12601.0 }, "geometry": { "type": "Point", "coordinates": [ -73.92942, 41.717388 ] } },
{ "type": "Feature", "properties": { "Name": "Jamaica Hospital Medical Center", "Address_1": "89th Avenue & Van Wyck Expressway", "City": "Jamaica", "State": "NY", "Latitude": 40.70256, "Longitude": -73.81325, "Zip": 11418.0 }, "geometry": { "type": "Point", "coordinates": [ -73.81325, 40.70256 ] } },
{ "type": "Feature", "properties": { "Name": "Hudson Valley Hospital Center", "Address_1": "1980 Crompond Road", "City": "Cortlandt Manor", "State": "NY", "Latitude": 41.291502, "Longitude": -73.893347, "Zip": 10567.0 }, "geometry": { "type": "Point", "coordinates": [ -73.893347, 41.291502 ] } },
{ "type": "Feature", "properties": { "Name": "Nyack Hospital", "Address_1": "160 North Midland Avenue", "City": "Nyack", "State": "NY", "Latitude": 41.095815, "Longitude": -73.925113, "Zip": 10960.0 }, "geometry": { "type": "Point", "coordinates": [ -73.925113, 41.095815 ] } },
{ "type": "Feature", "properties": { "Name": "Coler", "Address_1": "900 Main St", "City": "Roosevelt Island", "State": "NY", "Latitude": -73.942006, "Longitude": 40.770215, "Zip": 10044.0 }, "geometry": { "type": "Point", "coordinates": [ -73.942156210878565, 40.770272822089623 ] } }
]
}
